[
    {
        "name": "Biblioteca Central",
        "location": {
            "latitude": 19.333536,
            "longitude": -99.187326
        },
        "image": "bibliotecaCentral",
        "placeType": "Biblioteca",
        "pumabus": "Rectoría"
    },
    {
        "name": "iOS development lab Facultad de Ingeniería",
        "location": {
            "latitude": 19.327494,
            "longitude": -99.182304
        },
        "image": "iosLabFI",
        "placeType": "Importante",
        "pumabus": "Anexo de Ingenieria"
    },
    {
        "name": "Rectoría",
        "location": {
            "latitude": 19.332142,
            "longitude": -99.188130
        },
        "image": "rectoria",
        "placeType": "Oficionas",
        "pumabus": "Rectoría"
    },
    {
        "name": "División de Ciencias Básicas Facultad de Ingeniería",
        "location": {
            "latitude": 19.326329,
            "longitude": -99.182233
        },
        "image": "AnexFi",
        "placeType": "Escuela o Facultad",
        "pumabus": "Anexo de Ingeniería"
    },
    {
        "name": "Alberca Olímpica",
        "location": {
            "latitude": 19.330601,
            "longitude": -99.184958
        },
        "image": "AlbercaOLimpica",
        "placeType": "Intalacion Deportiva",
        "pumabus": "Alberca Olímpica"
    },
    {
        "name": "Estadio Olímpico Universitario",
        "location": {
            "latitude": 19.332028,
            "longitude": -99.191878
        },
        "image": "EstadioUniversitario",
        "placeType": "Intalacion Deportiva",
        "pumabus": "Estadio"
    },
    {
        "name": "Auditorio Javier Barros Sierra",
        "location": {
            "latitude": 19.331068,
            "longitude": -99.184045
        },
        "image": "AuditorioJavierBarrosSierra",
        "placeType": "Auditorio",
        "pumabus": "Ingeniería"
    },
    {
        "name": "Facultad de Ingeniería",
        "location": {
            "latitude": 19.331693,
            "longitude": -99.184775
        },
        "image": "FacultadIngenieria",
        "placeType": "Escuela o Facultad",
        "pumabus": "Ingeniería"
    },
    {
        "name": "Facultad de Filosofía y Letras",
        "location": {
            "latitude": 19.334239,
            "longitude": -99.186521
        },
        "image": "FacultadFilosofia",
        "placeType": "Escuela o Facultad",
        "pumabus": "Filosofía y Letras"
    },
    {
        "name": "Facultad De Psicología",
        "location": {
            "latitude": 19.334806,
            "longitude": -99.188420
        },
        "image": "FacultadPsicologia",
        "placeType": "Escuela o Facultad",
        "pumabus": "Psicología"
    },
    {
        "name": "Facultad de Economía",
        "location": {
            "latitude": 19.335069,
            "longitude": -99.183195
        },
        "image": "FacultadEconomia",
        "placeType": "Escuela o Facultad",
        "pumabus": "Economía"
    },
    {
        "name": "Facultad de Odontología",
        "location": {
            "latitude": 19.334796,
            "longitude": -99.181157
        },
        "image": "FacultadOdontologia",
        "placeType": "Escuela o Facultad",
        "pumabus": "Odontología"
    },
    {
        "name": "Facultad de Derecho",
        "location": {
            "latitude": 19.334097,
            "longitude": -99.183442
        },
        "image": "FacultadDerecho",
        "placeType": "Escuela o Facultad",
        "pumabus": "Derecho"
    },
    {
        "name": "Facultad de Medicina",
        "location": {
            "latitude": 19.333469,
            "longitude": -99.179912
        },
        "image": "FacultadMedicina",
        "placeType": "Escuela o Facultad",
        "pumabus": "Medicina"
    },
    {
        "name": "Facultad de Química",
        "location": {
            "latitude": 19.332062,
            "longitude": -99.180953
        },
        "image": "FacultadQuimica",
        "placeType": "Escuela o Facultad",
        "pumabus": "Quimica"
    },
    {
        "name": "Facultad de Medicina Veterinaria y Zootecnia",
        "location": {
            "latitude": 19.329941,
            "longitude": -99.176874
        },
        "image": "FacultadVeterinaria",
        "placeType": "Escuela o Facultad",
        "pumabus": "Veterinaria"
    },
    {
        "name": "Facultad de Ciencias",
        "location": {
            "latitude": 19.324140,
            "longitude": -99.180269
        },
        "image": "FacultadCiencias",
        "placeType": "Escuela o Facultad",
        "pumabus": "Ciencias"
    },
    {
        "name": "Facultad De Contaduría Y Administración",
        "location": {
            "latitude": 19.323806,
            "longitude": -99.185531
        },
        "image": "FacultadContaduria",
        "placeType": "Escuela o Facultad",
        "pumabus": "Contaduria"
    },
    {
        "name": "Escuela Nacional de Trabajo Social",
        "location": {
            "latitude": 19.323806,
            "longitude": -99.185531
        },
        "image": "EscuelaTrabajoSocial",
        "placeType": "Escuela o Facultad",
        "pumabus": "Trabajo Social"
    },
    {
        "name": "Facultad De Ciencias Políticas Y Sociales",
        "location": {
            "latitude": 19.318721,
            "longitude": -99.178039
        },
        "image": "FacultadCienciasPoliticas",
        "placeType": "Escuela o Facultad",
        "pumabus": "Ciencias Políticas"
    }
]
